time,latitude,longitude,roll,pitch,yaw,filtered_latitude,filtered_longitude,filtered_roll,filtered_pitch,filtered_yaw
1615570112,52.1324433,-2.3275946,0.1365605,0.0691891,-2.2407906,52.1324432,-2.3275947,0.1365605,0.0691891,-2.2407906
1615570112,52.1324434,-2.3275946,0.1340892,0.0682131,-2.7572372,52.1324433,-2.3275946,0.1365605,0.0691891,-2.2407908
1615570112,52.1324435,-2.3275945,0.1338566,0.0696771,-1.8723956,52.1324434,-2.3275946,0.1365605,0.0691891,-2.2407908
1615570113,52.1324436,-2.3275944,0.1333118,0.0638218,-2.8005414,52.1324435,-2.3275945,0.1365605,0.0691890,-2.2407899
1615570113,52.1324438,-2.3275946,0.1333507,0.0682131,-2.2868481,52.1324435,-2.3275945,0.1365601,0.0691889,-2.2407899
1615570114,52.1324438,-2.3275944,0.1346022,0.0704092,-2.0697327,52.1324436,-2.3275945,0.1365605,0.0691894,-2.2407949
1615570114,52.1324439,-2.3275944,0.1304020,0.0687011,-2.7398136,52.1324436,-2.3275945,0.1365602,0.0691891,-2.2407928
1615570114,52.1324440,-2.3275944,0.1321335,0.0696771,-2.1701632,52.1324437,-2.3275945,0.1365608,0.0691894,-2.2407928
1615570115,52.1324441,-2.3275943,0.1365288,0.0657733,-2.4712753,52.1324437,-2.3275945,0.1365601,0.0691892,-2.2407937
1615570115,52.1324442,-2.3275943,0.1331273,0.0706532,-2.6613951,52.1324438,-2.3275944,0.1365608,0.0691899,-2.2407990
1615570115,52.1324443,-2.3275944,0.1326057,0.0674811,-1.8899647,52.1324438,-2.3275944,0.1365613,0.0691895,-2.2407901
1615570116,52.1324444,-2.3275944,0.1264791,0.0701652,3.1318076,52.1324439,-2.3275944,0.1365615,0.0691903,-2.2407994
1615570116,52.1324445,-2.3275944,0.1355641,0.0679691,-1.8491921,52.1324439,-2.3275944,0.1365612,0.0691909,-2.2408094
1615570117,52.1324446,-2.3275945,0.1327933,0.0606510,-2.5310159,52.1324440,-2.3275944,0.1365626,0.0691904,-2.2407939
1615570117,52.1324447,-2.3275944,0.1355942,0.0711413,-2.4990492,52.1324440,-2.3275944,0.1365621,0.0691898,-2.2407889
1615570117,52.1324448,-2.3275945,0.1382569,0.0662612,-2.0044122,52.1324441,-2.3275944,0.1365614,0.0691908,-2.2408068
1615570118,52.1324449,-2.3275946,0.1298948,0.0669931,-2.0588455,52.1324441,-2.3275944,0.1365623,0.0691888,-2.2407749
1615570118,52.1324450,-2.3275947,0.1330935,0.0669931,-2.3462670,52.1324442,-2.3275944,0.1365608,0.0691881,-2.2407751
1615570118,52.1324451,-2.3275947,0.1313581,0.0655293,-2.6412582,52.1324442,-2.3275945,0.1365594,0.0691874,-2.2407753
1615570119,52.1324452,-2.3275949,0.1338188,0.0655293,-2.5469532,52.1324443,-2.3275945,0.1365581,0.0691851,-2.2407539
1615570119,52.1324454,-2.3275949,0.1340870,0.0679691,-2.4326451,52.1324443,-2.3275945,0.1365589,0.0691860,-2.2407606
1615570120,52.1324455,-2.3275950,0.1340542,0.0643096,-2.5627654,52.1324444,-2.3275945,0.1365601,0.0691882,-2.2407823
1615570120,52.1324456,-2.3275952,0.1326035,0.0672371,-2.1893497,52.1324444,-2.3275946,0.1365599,0.0691861,-2.2407551
1615570120,52.1324458,-2.3275953,0.1320795,0.0635778,-2.8578076,52.1324445,-2.3275946,0.1365604,0.0691875,-2.2407701
1615570121,52.1324459,-2.3275953,0.1343286,0.0674811,-1.8786298,52.1324445,-2.3275946,0.1365589,0.0691869,-2.2407722
1615570121,52.1324460,-2.3275955,0.1325862,0.0652854,-2.2686071,52.1324446,-2.3275946,0.1365579,0.0691839,-2.2407401
1615570121,52.1324462,-2.3275956,0.1325695,0.0633339,-2.6468408,52.1324447,-2.3275947,0.1365585,0.0691859,-2.2407620
1615570122,52.1324463,-2.3275957,0.1347990,0.0650414,-2.0563416,52.1324447,-2.3275947,0.1365557,0.0691849,-2.2407672
1615570122,52.1324465,-2.3275959,0.1357946,0.0662612,-2.1452272,52.1324448,-2.3275948,0.1365564,0.0691860,-2.2407761
1615570123,52.1324466,-2.3275958,0.1333689,0.0701652,-2.6254356,52.1324448,-2.3275948,0.1365563,0.0691848,-2.2407622
1615570123,52.1324467,-2.3275959,0.1318523,0.0657733,-2.0507545,52.1324449,-2.3275948,0.1365558,0.0691843,-2.2407594
1615570123,52.1324469,-2.3275959,0.1311037,0.0645536,-2.3500288,52.1324450,-2.3275949,0.1365593,0.0691846,-2.2407398
1615570124,52.1324470,-2.3275959,0.1284189,0.0669931,-2.6694312,52.1324450,-2.3275949,0.1365579,0.0691827,-2.2407250
1615570124,52.1324472,-2.3275960,0.1338659,0.0706532,-2.4068012,52.1324451,-2.3275949,0.1365607,0.0691845,-2.2407293
1615570124,52.1324473,-2.3275962,0.1365244,0.0652854,-2.1654580,52.1324452,-2.3275950,0.1365622,0.0691838,-2.2407105
1615570125,52.1324474,-2.3275962,0.1277002,0.0691891,-1.9626653,52.1324452,-2.3275950,0.1365632,0.0691823,-2.2406857
1615570125,52.1324476,-2.3275963,0.1298758,0.0647975,-2.0059075,52.1324453,-2.3275950,0.1365657,0.0691833,-2.2406816
1615570126,52.1324477,-2.3275963,0.1311121,0.0655293,-2.3602629,52.1324453,-2.3275951,0.1365695,0.0691821,-2.2406418
1615570126,52.1324479,-2.3275965,0.1311185,0.0662612,-2.2893839,52.1324454,-2.3275951,0.1365712,0.0691872,-2.2406964
1615570126,52.1324480,-2.3275965,0.1311163,0.0660173,-1.4433578,52.1324455,-2.3275951,0.1365660,0.0691862,-2.2407167
1615570127,52.1324481,-2.3275966,0.1333288,0.0657733,-1.9112874,52.1324455,-2.3275952,0.1365599,0.0691838,-2.2407253
1615570127,52.1324483,-2.3275967,0.1345726,0.0672371,-1.8623101,52.1324456,-2.3275952,0.1365628,0.0691811,-2.2406716
1615570127,52.1324484,-2.3275967,0.1343286,0.0674811,-2.4235797,52.1324457,-2.3275953,0.1365639,0.0691829,-2.2406874
1615570128,52.1324485,-2.3275968,0.1316020,0.0652854,-2.0769830,52.1324457,-2.3275953,0.1365611,0.0691831,-2.2407084
1615570128,52.1324486,-2.3275969,0.1299143,0.0691891,-2.0812764,52.1324458,-2.3275953,0.1365628,0.0691837,-2.2407043
1615570129,52.1324488,-2.3275969,0.1328218,0.0640657,-1.7022964,52.1324459,-2.3275954,0.1365666,0.0691847,-2.2406936
1615570129,52.1324489,-2.3275969,0.1345380,0.0633339,-2.1313219,52.1324459,-2.3275954,0.1365654,0.0691853,-2.2407084
1615570129,52.1324490,-2.3275970,0.1335880,0.0672371,-2.0986137,52.1324460,-2.3275954,0.1365639,0.0691882,-2.2407560
1615570130,52.1324491,-2.3275969,0.1293985,0.0665052,-2.7453120,52.1324461,-2.3275955,0.1365593,0.0691834,-2.2407234
1615570130,52.1324492,-2.3275969,0.1328518,0.0674811,-2.6649857,52.1324461,-2.3275955,0.1365587,0.0691807,-2.2406933
1615570130,52.1324493,-2.3275969,0.1328811,0.0706532,-2.4315560,52.1324462,-2.3275955,0.1365585,0.0691806,-2.2406933
1615570131,52.1324494,-2.3275969,0.1321135,0.0674811,-2.1128454,52.1324463,-2.3275955,0.1365587,0.0691835,-2.2407291
1615570131,52.1324496,-2.3275969,0.1338636,0.0704092,-2.3470364,52.1324463,-2.3275956,0.1365612,0.0691854,-2.2407370
1615570132,52.1324496,-2.3275969,0.1328260,0.0645536,-2.1646590,52.1324464,-2.3275956,0.1365649,0.0691853,-2.2407122
1615570132,52.1324498,-2.3275969,0.1335642,0.0645536,-2.0166535,52.1324464,-2.3275956,0.1365663,0.0691801,-2.2406361
1615570132,52.1324498,-2.3275970,0.1301344,0.0662612,-2.8263724,52.1324465,-2.3275956,0.1365653,0.0691756,-2.2405841
1615570133,52.1324499,-2.3275970,0.1316257,0.0679691,-2.1179304,52.1324466,-2.3275957,0.1365698,0.0691789,-2.2405980
1615570133,52.1324500,-2.3275969,0.1294028,0.0669931,-2.0297194,52.1324466,-2.3275957,0.1365741,0.0691789,-2.2405689
1615570133,52.1324502,-2.3275969,0.1303740,0.0655293,-2.4296386,52.1324467,-2.3275957,0.1365787,0.0691828,-2.2405903
1615570134,52.1324503,-2.3275968,0.1328540,0.0677251,-2.5316756,52.1324467,-2.3275957,0.1365821,0.0691789,-2.2405171
1615570134,52.1324503,-2.3275967,0.1328811,0.0706532,-2.1892042,52.1324468,-2.3275957,0.1365800,0.0691820,-2.2405705
1615570135,52.1324504,-2.3275967,0.1310975,0.0638218,-1.4268085,52.1324469,-2.3275958,0.1365715,0.0691755,-2.2405417
1615570135,52.1324506,-2.3275966,0.1350970,0.0706532,-2.3131793,52.1324469,-2.3275958,0.1365804,0.0691705,-2.2404203
1615570135,52.1324507,-2.3275966,0.1348255,0.0679691,-2.1541965,52.1324470,-2.3275958,0.1365826,0.0691705,-2.2404053
1615570136,52.1324508,-2.3275966,0.1313645,0.0662612,-2.3496885,52.1324470,-2.3275958,0.1365801,0.0691730,-2.2404544
1615570136,52.1324509,-2.3275966,0.1271933,0.0674811,-2.6104813,52.1324471,-2.3275958,0.1365725,0.0691645,-2.2403932
1615570136,52.1324510,-2.3275966,0.1284231,0.0674811,-2.4143517,52.1324472,-2.3275958,0.1365778,0.0691673,-2.2403953
1615570137,52.1324512,-2.3275965,0.1310955,0.0635778,-2.6334715,52.1324472,-2.3275958,0.1365764,0.0691670,-2.2403998
1615570137,52.1324513,-2.3275965,0.1350923,0.0701652,-2.1102154,52.1324473,-2.3275958,0.1365840,0.0691680,-2.2403646
1615570138,52.1324515,-2.3275964,0.1296509,0.0672371,-2.3421731,52.1324473,-2.3275958,0.1365885,0.0691727,-2.2403955
1615570138,52.1324516,-2.3275964,0.1348555,0.0711413,-2.8645546,52.1324474,-2.3275959,0.1365885,0.0691689,-2.2403462
1615570138,52.1324517,-2.3275963,0.1318502,0.0655293,-2.4888752,52.1324475,-2.3275959,0.1365973,0.0691631,-2.2402143
1615570139,52.1324519,-2.3275964,0.1318631,0.0669931,-2.4119592,52.1324475,-2.3275959,0.1365965,0.0691651,-2.2402453
1615570139,52.1324520,-2.3275962,0.1328302,0.0650414,-2.3279402,52.1324476,-2.3275959,0.1365904,0.0691620,-2.2402446
1615570139,52.1324521,-2.3275962,0.1311228,0.0667492,-2.1999719,52.1324476,-2.3275959,0.1365876,0.0691636,-2.2402833
1615570140,52.1324522,-2.3275961,0.1348034,0.0655293,-2.3662961,52.1324477,-2.3275959,0.1365810,0.0691719,-2.2404332
1615570140,52.1324524,-2.3275960,0.1338297,0.0667492,-2.5057240,52.1324478,-2.3275959,0.1365814,0.0691801,-2.2405369
1615570141,52.1324525,-2.3275959,0.1348187,0.0672371,-2.1167111,52.1324478,-2.3275959,0.1365833,0.0691796,-2.2405186
1615570141,52.1324526,-2.3275958,0.1313863,0.0687011,-3.0249515,52.1324479,-2.3275959,0.1365817,0.0691743,-2.2404604
1615570141,52.1324528,-2.3275958,0.1289368,0.0699211,-3.0053842,52.1324479,-2.3275959,0.1365799,0.0691745,-2.2404747
1615570142,52.1324529,-2.3275957,0.1333224,0.0650414,-2.5427642,52.1324480,-2.3275959,0.1365734,0.0691689,-2.2404439
1615570142,52.1324530,-2.3275957,0.1345380,0.0633339,-2.5885124,52.1324481,-2.3275959,0.1365735,0.0691697,-2.2404542
1615570142,52.1324531,-2.3275956,0.1323574,0.0672371,-1.6751237,52.1324481,-2.3275959,0.1365670,0.0691728,-2.2405360
1615570143,52.1324532,-2.3275956,0.1316214,0.0674811,-1.9684552,52.1324482,-2.3275959,0.1365631,0.0691683,-2.2405033
1615570143,52.1324533,-2.3275955,0.1303636,0.0643096,-2.4149766,52.1324482,-2.3275959,0.1365715,0.0691731,-2.2405105
1615570144,52.1324534,-2.3275954,0.1323596,0.0674811,-2.5633664,52.1324483,-2.3275959,0.1365729,0.0691802,-2.2405932
1615570144,52.1324535,-2.3275953,0.1343354,0.0682131,-2.0951362,52.1324484,-2.3275959,0.1365771,0.0691803,-2.2405672
1615570144,52.1324536,-2.3275951,0.1299210,0.0699211,-2.2883799,52.1324484,-2.3275958,0.1365724,0.0691773,-2.2405591
1615570145,52.1324537,-2.3275951,0.1360915,0.0716294,-2.3243790,52.1324485,-2.3275958,0.1365678,0.0691659,-2.2404423
1615570145,52.1324539,-2.3275950,0.1313581,0.0655293,-1.4779078,52.1324485,-2.3275958,0.1365682,0.0691686,-2.2404737
1615570145,52.1324540,-2.3275949,0.1318631,0.0669931,-2.2876916,52.1324486,-2.3275958,0.1365707,0.0691650,-2.2404118
1615570146,52.1324541,-2.3275949,0.1306637,0.0704092,-2.2942529,52.1324487,-2.3275958,0.1365713,0.0691698,-2.2404702
1615570146,52.1324541,-2.3275948,0.1326013,0.0669931,-2.1643457,52.1324487,-2.3275958,0.1365696,0.0691756,-2.2405548
1615570147,52.1324542,-2.3275947,0.1320754,0.0630900,-1.9254153,52.1324488,-2.3275958,0.1365615,0.0691818,-2.2406867
1615570147,52.1324543,-2.3275947,0.1328562,0.0679691,-2.9302478,52.1324488,-2.3275958,0.1365620,0.0691815,-2.2406797
1615570147,52.1324544,-2.3275945,0.1370168,0.0652854,-2.0170598,52.1324489,-2.3275958,0.1365707,0.0691799,-2.2406027
1615570148,52.1324545,-2.3275944,0.1331068,0.0684571,-1.7620080,52.1324490,-2.3275957,0.1365697,0.0691859,-2.2406864
1615570148,52.1324546,-2.3275944,0.1350452,0.0650414,-2.3920588,52.1324490,-2.3275957,0.1365621,0.0691763,-2.2406125
1615570148,52.1324546,-2.3275943,0.1323934,0.0711413,-2.5726929,52.1324491,-2.3275957,0.1365662,0.0691855,-2.2407041
1615570149,52.1324547,-2.3275943,0.1333441,0.0674811,-2.2675862,52.1324491,-2.3275957,0.1365536,0.0691866,-2.2407997
1615570149,52.1324547,-2.3275941,0.1345704,0.0669931,-2.3421917,52.1324492,-2.3275957,0.1365537,0.0691827,-2.2407498
1615570150,52.1324547,-2.3275939,0.1316257,0.0679691,-2.2523510,52.1324492,-2.3275957,0.1365589,0.0691754,-2.2406220
1615570150,52.1324548,-2.3275939,0.1328053,0.0621144,-2.3802977,52.1324493,-2.3275957,0.1365515,0.0691786,-2.2407107
1615570150,52.1324548,-2.3275938,0.1328905,0.0716294,-2.5453339,52.1324493,-2.3275956,0.1365574,0.0691774,-2.2406569
1615570151,52.1324548,-2.3275937,0.1308598,0.0647975,-1.8173083,52.1324494,-2.3275956,0.1365710,0.0691786,-2.2405849
1615570151,52.1324548,-2.3275937,0.1306525,0.0691891,-2.4269395,52.1324495,-2.3275956,0.1365795,0.0691928,-2.2407112
1615570151,52.1324548,-2.3275936,0.1368021,0.0687011,-2.1099958,52.1324495,-2.3275956,0.1365712,0.0691953,-2.2407975
1615570152,52.1324547,-2.3275935,0.1343025,0.0645536,-2.8171000,52.1324495,-2.3275956,0.1365738,0.0691858,-2.2406580
1615570152,52.1324547,-2.3275933,0.1315895,0.0638218,-2.1470723,52.1324496,-2.3275955,0.1365750,0.0691886,-2.2406871
1615570153,52.1324547,-2.3275932,0.1306285,0.0665052,-2.0586441,52.1324496,-2.3275955,0.1365837,0.0691952,-2.2407146
1615570153,52.1324547,-2.3275932,0.1303846,0.0667492,-1.9961468,52.1324497,-2.3275955,0.1365867,0.0691968,-2.2407172
1615570153,52.1324547,-2.3275930,0.1355396,0.0652854,-2.3752279,52.1324497,-2.3275955,0.1365903,0.0691940,-2.2406564
1615570154,52.1324547,-2.3275929,0.1338543,0.0694331,-1.9694464,52.1324498,-2.3275955,0.1365804,0.0691827,-2.2405767
1615570154,52.1324547,-2.3275929,0.1338543,0.0694331,-2.5141602,52.1324498,-2.3275954,0.1365856,0.0691772,-2.2404714
1615570154,52.1324546,-2.3275928,0.1304042,0.0689451,-2.0157888,52.1324499,-2.3275954,0.1365867,0.0691719,-2.2403963
1615570155,52.1324546,-2.3275927,0.1328453,0.0667492,-2.1834416,52.1324499,-2.3275954,0.1365846,0.0691770,-2.2404761
1615570155,52.1324546,-2.3275926,0.1323981,0.0716294,-2.6166158,52.1324499,-2.3275954,0.1365944,0.0691799,-2.2404490
1615570156,52.1324546,-2.3275926,0.1369910,0.0623583,-1.7140676,52.1324500,-2.3275953,0.1366026,0.0691796,-2.2403924
1615570156,52.1324545,-2.3275924,0.1323509,0.0665052,-1.9572725,52.1324500,-2.3275953,0.1365927,0.0691749,-2.2403955
1615570156,52.1324545,-2.3275923,0.1326350,0.0706532,-2.5905612,52.1324501,-2.3275953,0.1365941,0.0691680,-2.2402978
1615570157,52.1324544,-2.3275921,0.1294333,0.0704092,-2.4004693,52.1324501,-2.3275953,0.1366079,0.0691781,-2.2403390
1615570157,52.1324544,-2.3275919,0.1335814,0.0665052,-2.5066123,52.1324501,-2.3275952,0.1365988,0.0691848,-2.2404842
1615570157,52.1324544,-2.3275919,0.1338039,0.0638218,-2.3639362,52.1324502,-2.3275952,0.1366012,0.0691773,-2.2403717
1615570158,52.1324543,-2.3275917,0.1330870,0.0662612,-2.2830789,52.1324502,-2.3275952,0.1365860,0.0691666,-2.2403338
1615570158,52.1324543,-2.3275916,0.1331250,0.0704092,-2.5217464,52.1324502,-2.3275952,0.1365881,0.0691734,-2.2404070
1615570159,52.1324543,-2.3275915,0.1323552,0.0669931,-2.1908271,52.1324503,-2.3275951,0.1365891,0.0691686,-2.2403381
1615570159,52.1324543,-2.3275914,0.1323381,0.0650414,-2.3816442,52.1324503,-2.3275951,0.1365844,0.0691653,-2.2403259
1615570159,52.1324542,-2.3275912,0.1340758,0.0667492,-2.2649431,52.1324503,-2.3275951,0.1365912,0.0691661,-2.2402930
1615570160,52.1324542,-2.3275911,0.1333620,0.0694331,-3.0157323,52.1324504,-2.3275950,0.1365929,0.0691740,-2.2403824
1615570160,52.1324542,-2.3275909,0.1313775,0.0677251,-2.0350714,52.1324504,-2.3275950,0.1366013,0.0691684,-2.2402570
1615570160,52.1324541,-2.3275908,0.1318740,0.0682131,-2.0407996,52.1324504,-2.3275950,0.1365983,0.0691724,-2.2403271
1615570161,52.1324540,-2.3275906,0.1303889,0.0672371,-2.8254428,52.1324505,-2.3275949,0.1366123,0.0691794,-2.2403266
1615570161,52.1324539,-2.3275906,0.1289480,0.0711413,-2.2397137,52.1324505,-2.3275949,0.1366322,0.0691775,-2.2401731
1615570162,52.1324539,-2.3275904,0.1298758,0.0647975,-2.2217121,52.1324505,-2.3275949,0.1366412,0.0691777,-2.2401171
1615570162,52.1324538,-2.3275903,0.1338232,0.0660173,-2.6996467,52.1324505,-2.3275948,0.1366357,0.0691745,-2.2401116
1615570162,52.1324536,-2.3275902,0.1358013,0.0669931,-2.2160804,52.1324505,-2.3275948,0.1366305,0.0691826,-2.2402496
1615570163,52.1324536,-2.3275901,0.1318609,0.0667492,-2.3649721,52.1324506,-2.3275948,0.1366356,0.0691751,-2.2401204
1615570163,52.1324535,-2.3275900,0.1306503,0.0689451,-2.1441526,52.1324506,-2.3275947,0.1366301,0.0691736,-2.2401361
1615570163,52.1324534,-2.3275899,0.1330741,0.0647975,-2.0008790,52.1324506,-2.3275947,0.1366231,0.0691750,-2.2401998
1615570164,52.1324533,-2.3275897,0.1333015,0.0626022,-2.1749415,52.1324506,-2.3275947,0.1366233,0.0691721,-2.2401609
1615570164,52.1324532,-2.3275894,0.1326101,0.0679691,-2.4070923,52.1324507,-2.3275946,0.1366082,0.0691742,-2.2402864
1615570165,52.1324532,-2.3275893,0.1372786,0.0669931,-2.2870653,52.1324507,-2.3275946,0.1366021,0.0691707,-2.2402806
1615570165,52.1324532,-2.3275890,0.1358357,0.0706532,-2.2221096,52.1324507,-2.3275946,0.1365910,0.0691719,-2.2403686
1615570165,52.1324530,-2.3275890,0.1313930,0.0694331,-1.9523715,52.1324507,-2.3275945,0.1365978,0.0691779,-2.2404010
1615570166,52.1324529,-2.3275888,0.1316459,0.0701652,-2.2655714,52.1324507,-2.3275945,0.1365957,0.0691832,-2.2404821
1615570166,52.1324529,-2.3275885,0.1338188,0.0655293,-2.3220558,52.1324507,-2.3275944,0.1365958,0.0691841,-2.2404928
1615570166,52.1324528,-2.3275883,0.1301365,0.0665052,-2.3778412,52.1324508,-2.3275944,0.1365939,0.0691736,-2.2403710
1615570167,52.1324528,-2.3275881,0.1301302,0.0657733,-1.8334335,52.1324508,-2.3275944,0.1365916,0.0691600,-2.2402117
1615570167,52.1324527,-2.3275879,0.1363378,0.0716294,-2.2457335,52.1324508,-2.3275943,0.1366021,0.0691586,-2.2401257
1615570168,52.1324527,-2.3275877,0.1355506,0.0665052,-1.9171042,52.1324508,-2.3275943,0.1366012,0.0691429,-2.2399302
1615570168,52.1324526,-2.3275875,0.1333530,0.0684571,-2.3090680,52.1324508,-2.3275942,0.1365967,0.0691405,-2.2399271
1615570168,52.1324526,-2.3275873,0.1323729,0.0689451,-2.4165301,52.1324508,-2.3275942,0.1366141,0.0691486,-2.2399187
1615570169,52.1324525,-2.3275871,0.1343354,0.0682131,-2.0109262,52.1324508,-2.3275941,0.1366080,0.0691427,-2.2398827
1615570169,52.1324525,-2.3275868,0.1313775,0.0677251,-1.9127351,52.1324508,-2.3275941,0.1366089,0.0691470,-2.2399325
1615570169,52.1324525,-2.3275866,0.1355332,0.0645536,-2.5088451,52.1324508,-2.3275940,0.1366064,0.0691584,-2.2400939
1615570170,52.1324525,-2.3275864,0.1301516,0.0682131,-2.7318234,52.1324509,-2.3275940,0.1366200,0.0691503,-2.2399030
1615570170,52.1324524,-2.3275863,0.1350282,0.0630900,-2.5715742,52.1324509,-2.3275939,0.1366134,0.0691486,-2.2399235
1615570171,52.1324525,-2.3275861,0.1343653,0.0713854,-2.2604742,52.1324509,-2.3275939,0.1366290,0.0691430,-2.2397504
1615570171,52.1324525,-2.3275859,0.1325948,0.0662612,-1.9844140,52.1324509,-2.3275938,0.1366251,0.0691456,-2.2398090
1615570171,52.1324525,-2.3275857,0.1321201,0.0682131,-2.3210015,52.1324509,-2.3275938,0.1366341,0.0691598,-2.2399333
1615570172,52.1324524,-2.3275855,0.1335749,0.0657733,-2.5355263,52.1324509,-2.3275937,0.1366300,0.0691649,-2.2400243
1615570172,52.1324524,-2.3275853,0.1338275,0.0665052,-2.2476704,52.1324509,-2.3275937,0.1366325,0.0691643,-2.2400005
1615570172,52.1324525,-2.3275851,0.1311536,0.0701652,-2.2183847,52.1324509,-2.3275936,0.1366384,0.0691867,-2.2402487
1615570173,52.1324525,-2.3275850,0.1321070,0.0667492,-2.2982335,52.1324509,-2.3275936,0.1366445,0.0691952,-2.2403183
1615570173,52.1324525,-2.3275849,0.1350240,0.0626022,-2.2136791,52.1324509,-2.3275935,0.1366521,0.0692036,-2.2403758
1615570174,52.1324525,-2.3275847,0.1291740,0.0689451,-2.2968860,52.1324510,-2.3275935,0.1366475,0.0692001,-2.2403610
1615570174,52.1324526,-2.3275846,0.1313731,0.0672371,-2.3246839,52.1324510,-2.3275934,0.1366615,0.0691974,-2.2402360
1615570174,52.1324525,-2.3275846,0.1286712,0.0677251,-2.9724810,52.1324510,-2.3275934,0.1366508,0.0692000,-2.2403383
1615570175,52.1324526,-2.3275846,0.1311292,0.0674811,-2.4919851,52.1324510,-2.3275933,0.1366453,0.0691973,-2.2403393
1615570175,52.1324527,-2.3275845,0.1345529,0.0650414,-2.0921221,52.1324510,-2.3275933,0.1366437,0.0691862,-2.2402084
1615570175,52.1324527,-2.3275846,0.1311228,0.0667492,-2.1829970,52.1324510,-2.3275932,0.1366371,0.0691959,-2.2403746
1615570176,52.1324527,-2.3275845,0.1340825,0.0674811,-2.7984738,52.1324510,-2.3275932,0.1366420,0.0692005,-2.2404022
1615570176,52.1324528,-2.3275844,0.1286798,0.0687011,-2.4209366,52.1324510,-2.3275931,0.1366531,0.0691968,-2.2402830
1615570177,52.1324528,-2.3275843,0.1363142,0.0691891,-1.6483883,52.1324510,-2.3275931,0.1366552,0.0692002,-2.2403123
1615570177,52.1324529,-2.3275842,0.1367952,0.0679691,-2.4058571,52.1324510,-2.3275930,0.1366505,0.0692064,-2.2404227
1615570177,52.1324529,-2.3275841,0.1363166,0.0694331,-2.3605881,52.1324511,-2.3275930,0.1366508,0.0692070,-2.2404282
1615570178,52.1324529,-2.3275839,0.1313581,0.0655293,-2.0211000,52.1324511,-2.3275929,0.1366450,0.0692175,-2.2405999
1615570178,52.1324531,-2.3275837,0.1355204,0.0630900,-2.1710260,52.1324511,-2.3275929,0.1366468,0.0692118,-2.2405152
1615570178,52.1324532,-2.3275836,0.1333375,0.0667492,-2.5156808,52.1324511,-2.3275928,0.1366471,0.0692046,-2.2404218
1615570179,52.1324533,-2.3275835,0.1308986,0.0691891,-2.2075405,52.1324511,-2.3275928,0.1366374,0.0692023,-2.2404544
1615570179,52.1324533,-2.3275834,0.1289390,0.0701652,-2.4062722,52.1324511,-2.3275927,0.1366402,0.0691901,-2.2402811
1615570180,52.1324534,-2.3275833,0.1320962,0.0655293,-2.3578486,52.1324511,-2.3275927,0.1366377,0.0691728,-2.2400746
1615570180,52.1324535,-2.3275833,0.1330914,0.0667492,-2.4887967,52.1324511,-2.3275926,0.1366339,0.0691752,-2.2401304
1615570180,52.1324535,-2.3275832,0.1325799,0.0645536,-2.0185785,52.1324511,-2.3275925,0.1366519,0.0691828,-2.2401121
1615570181,52.1324535,-2.3275831,0.1338566,0.0696771,-2.2975347,52.1324512,-2.3275925,0.1366354,0.0691990,-2.2404253
1615570181,52.1324535,-2.3275831,0.1313863,0.0687011,-2.2631330,52.1324512,-2.3275924,0.1366560,0.0691999,-2.2403028
1615570181,52.1324536,-2.3275830,0.1335902,0.0674811,-2.1770658,52.1324512,-2.3275924,0.1366751,0.0692003,-2.2401848
1615570182,52.1324536,-2.3275830,0.1333309,0.0660173,-2.3493211,52.1324512,-2.3275923,0.1366666,0.0691848,-2.2400422
1615570182,52.1324536,-2.3275830,0.1321246,0.0687011,-2.5082340,52.1324512,-2.3275923,0.1366498,0.0691905,-2.2402236
1615570183,52.1324537,-2.3275828,0.1308598,0.0647975,-2.6083040,52.1324512,-2.3275922,0.1366417,0.0691870,-2.2402306
1615570183,52.1324537,-2.3275827,0.1311037,0.0645536,-2.2972150,52.1324512,-2.3275922,0.1366372,0.0691827,-2.2402050
1615570183,52.1324538,-2.3275826,0.1281150,0.0599194,-2.3047895,52.1324513,-2.3275921,0.1366264,0.0691802,-2.2402425
1615570184,52.1324539,-2.3275825,0.1382524,0.0657733,-2.4432697,52.1324513,-2.3275921,0.1366338,0.0691745,-2.2401218
1615570184,52.1324539,-2.3275824,0.1328323,0.0652854,-2.2512569,52.1324513,-2.3275920,0.1366214,0.0691952,-2.2404659
1615570184,52.1324539,-2.3275823,0.1328366,0.0657733,-2.1699266,52.1324513,-2.3275920,0.1366068,0.0691884,-2.2404742
1615570185,52.1324540,-2.3275822,0.1318875,0.0696771,-2.1599135,52.1324513,-2.3275919,0.1366196,0.0691959,-2.2404864
1615570185,52.1324541,-2.3275820,0.1340758,0.0667492,-2.4239812,52.1324513,-2.3275919,0.1366110,0.0691767,-2.2402978
1615570186,52.1324541,-2.3275819,0.1321005,0.0660173,-2.4149854,52.1324513,-2.3275918,0.1366119,0.0691852,-2.2403998
1615570186,52.1324542,-2.3275817,0.1313645,0.0662612,-2.0389190,52.1324513,-2.3275918,0.1366227,0.0691927,-2.2404261
1615570186,52.1324542,-2.3275815,0.1303846,0.0667492,-1.9688252,52.1324514,-2.3275917,0.1366258,0.0692029,-2.2405362
1615570187,52.1324542,-2.3275813,0.1338341,0.0672371,-2.6255960,52.1324514,-2.3275917,0.1366410,0.0692168,-2.2406156
1615570187,52.1324543,-2.3275813,0.1357968,0.0665052,-2.1048677,52.1324514,-2.3275916,0.1366519,0.0692357,-2.2407856
1615570187,52.1324543,-2.3275812,0.1318674,0.0674811,-1.7796772,52.1324514,-2.3275916,0.1366605,0.0692462,-2.2408643
1615570188,52.1324543,-2.3275812,0.1343198,0.0665052,-2.2412047,52.1324514,-2.3275915,0.1366632,0.0692544,-2.2409518
1615570188,52.1324543,-2.3275811,0.1301538,0.0684571,-2.4969780,52.1324514,-2.3275915,0.1366761,0.0692534,-2.2408566
1615570189,52.1324544,-2.3275811,0.1318588,0.0665052,-2.3383005,52.1324514,-2.3275914,0.1366909,0.0692419,-2.2406135
1615570189,52.1324543,-2.3275810,0.1308661,0.0655293,-2.0703378,52.1324515,-2.3275914,0.1366984,0.0692543,-2.2407231
1615570189,52.1324544,-2.3275809,0.1333375,0.0667492,-2.8387351,52.1324515,-2.3275913,0.1366796,0.0692673,-2.2410102
1615570190,52.1324545,-2.3275808,0.1343286,0.0674811,-2.3503270,52.1324515,-2.3275913,0.1366872,0.0692771,-2.2410865
1615570190,52.1324545,-2.3275808,0.1333331,0.0662612,-2.2559257,52.1324515,-2.3275912,0.1366795,0.0692798,-2.2411699
1615570190,52.1324546,-2.3275807,0.1313841,0.0684571,-2.5324993,52.1324515,-2.3275912,0.1366769,0.0692642,-2.2409887
1615570191,52.1324546,-2.3275806,0.1313602,0.0657733,-2.1866543,52.1324515,-2.3275911,0.1366552,0.0692656,-2.2411454
1615570191,52.1324547,-2.3275806,0.1326079,0.0677251,-2.1945779,52.1324515,-2.3275911,0.1366599,0.0692507,-2.2409246
1615570192,52.1324547,-2.3275807,0.1337874,0.0618705,-2.2473733,52.1324516,-2.3275910,0.1366618,0.0692381,-2.2407520
1615570192,52.1324548,-2.3275806,0.1360386,0.0660173,-2.4784210,52.1324516,-2.3275910,0.1366585,0.0692443,-2.2408528
1615570192,52.1324548,-2.3275806,0.1313930,0.0694331,-1.5640712,52.1324516,-2.3275909,0.1366745,0.0692427,-2.2407293
1615570193,52.1324549,-2.3275808,0.1316257,0.0679691,-2.1582682,52.1324516,-2.3275909,0.1366624,0.0692335,-2.2406893
1615570193,52.1324550,-2.3275809,0.1306180,0.0652854,-2.4556203,52.1324516,-2.3275908,0.1366591,0.0692330,-2.2407043
1615570193,52.1324551,-2.3275810,0.1318418,0.0645536,-2.1739211,52.1324516,-2.3275908,0.1366628,0.0692454,-2.2408390
1615570194,52.1324553,-2.3275811,0.1301344,0.0662612,-2.1698589,52.1324517,-2.3275908,0.1366683,0.0692433,-2.2407765
1615570194,52.1324554,-2.3275813,0.1350808,0.0689451,-2.2851436,52.1324517,-2.3275907,0.1366850,0.0692204,-2.2403769
1615570195,52.1324555,-2.3275813,0.1343176,0.0662612,-2.1598876,52.1324517,-2.3275907,0.1366740,0.0692220,-2.2404683
1615570195,52.1324556,-2.3275814,0.1282166,0.0718735,-2.4704435,52.1324517,-2.3275906,0.1366768,0.0692248,-2.2404852
1615570195,52.1324557,-2.3275816,0.1313731,0.0672371,-2.6784453,52.1324517,-2.3275906,0.1367023,0.0692411,-2.2405298
1615570196,52.1324558,-2.3275818,0.1335621,0.0643096,-2.5641968,52.1324517,-2.3275905,0.1367007,0.0692454,-2.2405949
1615570196,52.1324558,-2.3275819,0.1323729,0.0689451,-2.4532020,52.1324518,-2.3275905,0.1366942,0.0692504,-2.2407000
1615570196,52.1324560,-2.3275820,0.1306180,0.0652854,-2.0331974,52.1324518,-2.3275905,0.1367145,0.0692659,-2.2407672
1615570197,52.1324561,-2.3275820,0.1313753,0.0674811,-2.7194386,52.1324518,-2.3275904,0.1367055,0.0692608,-2.2407608
1615570197,52.1324562,-2.3275822,0.1311058,0.0647975,-2.1955631,52.1324518,-2.3275904,0.1367013,0.0692622,-2.2408049
1615570198,52.1324562,-2.3275823,0.1296340,0.0652854,-2.5116186,52.1324518,-2.3275904,0.1366809,0.0692530,-2.2408197
1615570198,52.1324563,-2.3275824,0.1316170,0.0669931,-2.1880031,52.1324519,-2.3275903,0.1366806,0.0692693,-2.2410293
1615570198,52.1324564,-2.3275826,0.1328585,0.0682131,-1.8102790,52.1324519,-2.3275903,0.1366843,0.0692549,-2.2408216
1615570199,52.1324563,-2.3275826,0.1320941,0.0652854,-1.9279186,52.1324519,-2.3275903,0.1366927,0.0692908,-2.2412262
1615570199,52.1324564,-2.3275826,0.1281771,0.0674811,-1.8788208,52.1324519,-2.3275902,0.1366758,0.0692833,-2.2412386
1615570199,52.1324564,-2.3275827,0.1298863,0.0660173,-2.2142694,52.1324519,-2.3275902,0.1366723,0.0692753,-2.2411594
1615570200,52.1324564,-2.3275827,0.1323402,0.0652854,-2.3680644,52.1324520,-2.3275902,0.1366628,0.0692884,-2.2413878
1615570200,52.1324564,-2.3275828,0.1333441,0.0674811,-2.1416981,52.1324520,-2.3275901,0.1366585,0.0692735,-2.2412245
1615570201,52.1324564,-2.3275829,0.1342878,0.0628461,-1.4787588,52.1324520,-2.3275901,0.1366605,0.0692953,-2.2414918
1615570201,52.1324564,-2.3275830,0.1284360,0.0689451,3.1156123,52.1324520,-2.3275901,0.1366543,0.0692983,-2.2415693
1615570201,52.1324565,-2.3275831,0.1301451,0.0674811,-2.6404147,52.1324520,-2.3275900,0.1366426,0.0693070,-2.2417562
1615570202,52.1324565,-2.3275831,0.1333353,0.0665052,-1.9200867,52.1324520,-2.3275900,0.1366279,0.0693166,-2.2419729
1615570202,52.1324565,-2.3275833,0.1345572,0.0655293,-2.4814672,52.1324521,-2.3275900,0.1366126,0.0693010,-2.2418718
1615570202,52.1324565,-2.3275834,0.1338408,0.0679691,-2.0950692,52.1324521,-2.3275900,0.1366350,0.0693054,-2.2417841
1615570203,52.1324565,-2.3275833,0.1318481,0.0652854,-1.6532971,52.1324521,-2.3275899,0.1366369,0.0693031,-2.2417419
1615570203,52.1324566,-2.3275834,0.1318631,0.0669931,-2.2908843,52.1324521,-2.3275899,0.1366214,0.0693125,-2.2419620
1615570204,52.1324565,-2.3275836,0.1337854,0.0616266,-2.2467303,52.1324521,-2.3275899,0.1366036,0.0693051,-2.2419829
1615570204,52.1324566,-2.3275836,0.1333441,0.0674811,-2.2654483,52.1324522,-2.3275899,0.1366060,0.0693052,-2.2419684
1615570204,52.1324566,-2.3275836,0.1301693,0.0701652,-2.4788494,52.1324522,-2.3275898,0.1366236,0.0692959,-2.2417355
1615570205,52.1324566,-2.3275837,0.1320857,0.0643096,-1.9615943,52.1324522,-2.3275898,0.1366213,0.0693079,-2.2419043
1615570205,52.1324567,-2.3275836,0.1303595,0.0638218,3.0139654,52.1324522,-2.3275898,0.1366010,0.0693100,-2.2420611
1615570205,52.1324567,-2.3275835,0.1355204,0.0630900,-2.3336208,52.1324522,-2.3275897,0.1366089,0.0693201,-2.2421403
1615570206,52.1324568,-2.3275834,0.1306200,0.0655293,-2.4698887,52.1324522,-2.3275897,0.1366214,0.0693451,-2.2423797
1615570206,52.1324568,-2.3275834,0.1338297,0.0667492,-2.2689328,52.1324523,-2.3275897,0.1366103,0.0693528,-2.2425506
1615570207,52.1324568,-2.3275833,0.1313710,0.0669931,-2.8692055,52.1324523,-2.3275897,0.1365873,0.0693494,-2.2426543
1615570207,52.1324568,-2.3275835,0.1316235,0.0677251,-2.3238697,52.1324523,-2.3275896,0.1365913,0.0693394,-2.2425003
1615570207,52.1324568,-2.3275835,0.1333309,0.0660173,-2.2724562,52.1324523,-2.3275896,0.1365978,0.0693523,-2.2426243
1615570208,52.1324567,-2.3275835,0.1323707,0.0687011,-2.0868592,52.1324523,-2.3275896,0.1365993,0.0693294,-2.2423205
1615570208,52.1324568,-2.3275836,0.1301494,0.0679691,-2.3781524,52.1324524,-2.3275896,0.1366159,0.0693198,-2.2420909
1615570208,52.1324567,-2.3275838,0.1328155,0.0633339,-1.5882745,52.1324524,-2.3275896,0.1366253,0.0692938,-2.2416980
1615570209,52.1324567,-2.3275838,0.1325799,0.0645536,-2.5377560,52.1324524,-2.3275895,0.1366279,0.0692737,-2.2414231
1615570209,52.1324568,-2.3275839,0.1365536,0.0684571,-2.3686609,52.1324524,-2.3275895,0.1366158,0.0692883,-2.2416878
1615570210,52.1324568,-2.3275839,0.1316235,0.0677251,-2.3299279,52.1324524,-2.3275895,0.1365879,0.0693224,-2.2423048
1615570210,52.1324568,-2.3275840,0.1330935,0.0669931,-2.2977495,52.1324524,-2.3275895,0.1365724,0.0693278,-2.2424738
1615570210,52.1324568,-2.3275840,0.1291421,0.0652854,-2.6600530,52.1324525,-2.3275894,0.1365784,0.0693369,-2.2425520
1615570211,52.1324568,-2.3275842,0.1350946,0.0704092,-1.7540790,52.1324525,-2.3275894,0.1365960,0.0693254,-2.2422915
1615570211,52.1324569,-2.3275842,0.1338124,0.0647975,-2.1093497,52.1324525,-2.3275894,0.1366107,0.0693529,-2.2425487
1615570211,52.1324570,-2.3275843,0.1323381,0.0650414,-2.1402543,52.1324525,-2.3275894,0.1366012,0.0693872,-2.2430491
1615570212,52.1324570,-2.3275844,0.1326213,0.0691891,-2.5511227,52.1324525,-2.3275894,0.1365807,0.0693644,-2.2428882
1615570212,52.1324570,-2.3275845,0.1311358,0.0682131,-2.2543743,52.1324525,-2.3275894,0.1366040,0.0693409,-2.2424383
1615570213,52.1324571,-2.3275846,0.1340915,0.0684571,-2.5072351,52.1324526,-2.3275893,0.1365483,0.0693477,-2.2428842
1615570213,52.1324572,-2.3275847,0.1367448,0.0623583,-1.7807058,52.1324526,-2.3275893,0.1365664,0.0693436,-2.2427149
1615570213,52.1324572,-2.3275848,0.1318588,0.0665052,-2.8461485,52.1324526,-2.3275893,0.1365575,0.0693638,-2.2430296
1615570214,52.1324572,-2.3275849,0.1338341,0.0672371,-2.4392536,52.1324526,-2.3275893,0.1365685,0.0693737,-2.2430854
1615570214,52.1324572,-2.3275850,0.1316257,0.0679691,-2.2942030,52.1324526,-2.3275893,0.1365514,0.0693719,-2.2431743
1615570214,52.1324573,-2.3275851,0.1333202,0.0647975,-2.3524060,52.1324526,-2.3275893,0.1365334,0.0693377,-2.2428510
1615570215,52.1324573,-2.3275852,0.1328176,0.0635778,-2.3557246,52.1324527,-2.3275892,0.1365180,0.0693366,-2.2429368
1615570215,52.1324573,-2.3275853,0.1328431,0.0665052,-2.4654365,52.1324527,-2.3275892,0.1365422,0.0693573,-2.2430458
1615570216,52.1324574,-2.3275854,0.1355462,0.0660173,-1.8300527,52.1324527,-2.3275892,0.1365638,0.0693739,-2.2431192
1615570216,52.1324574,-2.3275854,0.1311336,0.0679691,-1.8636492,52.1324527,-2.3275892,0.1365425,0.0693467,-2.2429080
1615570216,52.1324574,-2.3275855,0.1299165,0.0694331,-2.5343645,52.1324527,-2.3275892,0.1365058,0.0693560,-2.2432632
1615570217,52.1324574,-2.3275856,0.1323487,0.0662612,-2.5803475,52.1324527,-2.3275892,0.1364894,0.0693414,-2.2431822
1615570217,52.1324575,-2.3275857,0.1358453,0.0716294,-2.4607196,52.1324528,-2.3275892,0.1364744,0.0693378,-2.2432327
1615570217,52.1324575,-2.3275859,0.1331136,0.0691891,-2.3807130,52.1324528,-2.3275891,0.1364688,0.0693536,-2.2434707
1615570218,52.1324576,-2.3275861,0.1331068,0.0684571,-2.1032009,52.1324528,-2.3275891,0.1364740,0.0693700,-2.2436471
1615570218,52.1324576,-2.3275861,0.1303998,0.0684571,-1.9752029,52.1324528,-2.3275891,0.1364908,0.0693799,-2.2436662
1615570219,52.1324577,-2.3275861,0.1350561,0.0662612,-2.2550347,52.1324528,-2.3275891,0.1364800,0.0693909,-2.2438765
1615570219,52.1324577,-2.3275862,0.1340758,0.0667492,-1.3892667,52.1324528,-2.3275891,0.1364864,0.0693897,-2.2438204
1615570219,52.1324578,-2.3275863,0.1340376,0.0623583,-2.1711519,52.1324529,-2.3275891,0.1364962,0.0694039,-2.2439382
1615570220,52.1324578,-2.3275864,0.1328344,0.0655293,-2.3652000,52.1324529,-2.3275891,0.1364656,0.0693947,-2.2440181
1615570220,52.1324579,-2.3275865,0.1328743,0.0699211,-2.3456264,52.1324529,-2.3275891,0.1364763,0.0693929,-2.2439263
1615570220,52.1324580,-2.3275866,0.1340937,0.0687011,-2.5344665,52.1324529,-2.3275891,0.1364540,0.0693799,-2.2439027
1615570221,52.1324580,-2.3275867,0.1335946,0.0679691,-2.4674587,52.1324529,-2.3275891,0.1364449,0.0693797,-2.2439587
1615570221,52.1324581,-2.3275866,0.1335969,0.0682131,-2.2929771,52.1324529,-2.3275890,0.1364371,0.0693744,-2.2439411
1615570222,52.1324581,-2.3275866,0.1338659,0.0706532,-2.6802871,52.1324530,-2.3275890,0.1364429,0.0693906,-2.2441108
1615570222,52.1324583,-2.3275867,0.1318035,0.0599194,-2.1151710,52.1324530,-2.3275890,0.1364264,0.0694076,-2.2444344
1615570222,52.1324583,-2.3275867,0.1352956,0.0655293,-2.2244890,52.1324530,-2.3275890,0.1364158,0.0693967,-2.2443643
1615570223,52.1324583,-2.3275868,0.1298842,0.0657733,-2.5973349,52.1324530,-2.3275890,0.1364354,0.0693601,-2.2437682
1615570223,52.1324584,-2.3275869,0.1293964,0.0662612,-2.7956066,52.1324530,-2.3275890,0.1364433,0.0693584,-2.2436953
1615570223,52.1324584,-2.3275871,0.1321048,0.0665052,-2.2914295,52.1324531,-2.3275890,0.1364288,0.0693807,-2.2440758
1615570224,52.1324585,-2.3275872,0.1325991,0.0667492,-2.4679234,52.1324531,-2.3275890,0.1364247,0.0693454,-2.2436495
1615570224,52.1324585,-2.3275873,0.1330699,0.0643096,-2.2262337,52.1324531,-2.3275890,0.1364333,0.0693505,-2.2436588
1615570225,52.1324586,-2.3275874,0.1313624,0.0660173,-2.7503817,52.1324531,-2.3275890,0.1364467,0.0693674,-2.2437892
1615570225,52.1324586,-2.3275876,0.1279248,0.0667492,-2.8183186,52.1324531,-2.3275890,0.1364619,0.0693356,-2.2432828
1615570225,52.1324586,-2.3275877,0.1330827,0.0657733,-2.4318881,52.1324531,-2.3275890,0.1364662,0.0693319,-2.2432089
1615570226,52.1324587,-2.3275877,0.1313710,0.0669931,-2.1235209,52.1324532,-2.3275890,0.1364737,0.0693282,-2.2431128
1615570226,52.1324588,-2.3275879,0.1333552,0.0687011,-2.0740891,52.1324532,-2.3275890,0.1364618,0.0692837,-2.2426188
1615570226,52.1324588,-2.3275880,0.1333160,0.0643096,-2.0375166,52.1324532,-2.3275890,0.1364463,0.0692773,-2.2426369
1615570227,52.1324589,-2.3275880,0.1330935,0.0669931,-2.1179461,52.1324532,-2.3275890,0.1364493,0.0692888,-2.2427645
1615570227,52.1324589,-2.3275880,0.1338521,0.0691891,-2.7987201,52.1324532,-2.3275890,0.1364151,0.0692692,-2.2427349
1615570228,52.1324590,-2.3275882,0.1325905,0.0657733,-2.4269123,52.1324533,-2.3275890,0.1364197,0.0692560,-2.2425351
1615570228,52.1324590,-2.3275883,0.1333876,0.0721175,-2.1853187,52.1324533,-2.3275890,0.1364060,0.0692734,-2.2428470
1615570228,52.1324591,-2.3275884,0.1347969,0.0647975,-2.2975640,52.1324533,-2.3275890,0.1363862,0.0692754,-2.2430000
1615570229,52.1324592,-2.3275884,0.1306285,0.0665052,-2.3398316,52.1324533,-2.3275890,0.1363870,0.0692785,-2.2430351
1615570229,52.1324594,-2.3275884,0.1311424,0.0689451,-2.2676022,52.1324533,-2.3275889,0.1363997,0.0692646,-2.2427740
1615570229,52.1324594,-2.3275883,0.1333309,0.0660173,-2.7396483,52.1324533,-2.3275889,0.1363949,0.0692817,-2.2430246
1615570230,52.1324594,-2.3275885,0.1318852,0.0694331,-2.6909285,52.1324534,-2.3275889,0.1363803,0.0692932,-2.2432666
1615570230,52.1324595,-2.3275885,0.1323685,0.0684571,-2.5161014,52.1324534,-2.3275889,0.1364026,0.0692572,-2.2426608
1615570231,52.1324596,-2.3275885,0.1330827,0.0657733,-2.1751575,52.1324534,-2.3275889,0.1363886,0.0692372,-2.2424948
1615570231,52.1324596,-2.3275887,0.1326258,0.0696771,-2.2430964,52.1324534,-2.3275889,0.1363855,0.0692095,-2.2421598
1615570231,52.1324597,-2.3275888,0.1328540,0.0677251,-2.0616441,52.1324534,-2.3275889,0.1363461,0.0692122,-2.2424481
1615570232,52.1324599,-2.3275888,0.1333463,0.0677251,-2.4517143,52.1324535,-2.3275889,0.1363411,0.0692310,-2.2427211
1615570232,52.1324600,-2.3275889,0.1335684,0.0650414,-1.7105603,52.1324535,-2.3275889,0.1364031,0.0692640,-2.2427447
1615570232,52.1324600,-2.3275890,0.1333552,0.0687011,-2.5806451,52.1324535,-2.3275889,0.1364350,0.0692552,-2.2424266
1615570233,52.1324601,-2.3275891,0.1330892,0.0665052,-2.3380773,52.1324535,-2.3275889,0.1364117,0.0692192,-2.2421145
1615570233,52.1324601,-2.3275892,0.1350539,0.0660173,-2.3158622,52.1324535,-2.3275889,0.1364186,0.0692163,-2.2420330
1615570234,52.1324602,-2.3275892,0.1303535,0.0630900,-1.9863197,52.1324536,-2.3275889,0.1364473,0.0691941,-2.2415626
1615570234,52.1324603,-2.3275893,0.1338167,0.0652854,-1.8673408,52.1324536,-2.3275889,0.1364601,0.0691756,-2.2412434
1615570234,52.1324604,-2.3275895,0.1336082,0.0694331,-2.1393948,52.1324536,-2.3275889,0.1365054,0.0691504,-2.2406273
1615570235,52.1324606,-2.3275895,0.1291525,0.0665052,-2.8617196,52.1324536,-2.3275889,0.1365375,0.0691581,-2.2405186
1615570235,52.1324607,-2.3275897,0.1338475,0.0687011,-2.4351029,52.1324537,-2.3275889,0.1365403,0.0691665,-2.2406092
1615570235,52.1324608,-2.3275898,0.1350517,0.0657733,-2.2187335,52.1324537,-2.3275890,0.1364978,0.0691506,-2.2406788
1615570236,52.1324610,-2.3275898,0.1348187,0.0672371,-1.9825875,52.1324537,-2.3275890,0.1365083,0.0691613,-2.2407486
1615570236,52.1324610,-2.3275899,0.1335836,0.0667492,-2.1700604,52.1324537,-2.3275890,0.1364966,0.0691573,-2.2407732
1615570237,52.1324612,-2.3275899,0.1291504,0.0662612,-1.8709248,52.1324537,-2.3275890,0.1364654,0.0691696,-2.2411327
1615570237,52.1324613,-2.3275901,0.1318439,0.0647975,-2.1578612,52.1324538,-2.3275890,0.1364693,0.0691795,-2.2412338
1615570237,52.1324614,-2.3275900,0.1325948,0.0662612,-2.1949804,52.1324538,-2.3275890,0.1365095,0.0691550,-2.2406607
1615570238,52.1324616,-2.3275903,0.1294113,0.0679691,-2.1424787,52.1324538,-2.3275890,0.1364930,0.0691549,-2.2407658
1615570238,52.1324617,-2.3275904,0.1320899,0.0647975,-2.3477659,52.1324538,-2.3275890,0.1364933,0.0691291,-2.2404332
1615570238,52.1324618,-2.3275905,0.1291441,0.0655293,-2.1189046,52.1324539,-2.3275890,0.1364985,0.0691280,-2.2403851
1615570239,52.1324619,-2.3275906,0.1320632,0.0616266,-2.1993330,52.1324539,-2.3275890,0.1365286,0.0691235,-2.2401321
1615570239,52.1324621,-2.3275908,0.1330827,0.0657733,-2.3691382,52.1324539,-2.3275890,0.1365339,0.0691319,-2.2402062
1615570240,52.1324623,-2.3275908,0.1318785,0.0687011,-2.6221287,52.1324539,-2.3275890,0.1365410,0.0690916,-2.2396436
1615570240,52.1324624,-2.3275909,0.1296299,0.0647975,-2.0527639,52.1324540,-2.3275890,0.1365411,0.0690763,-2.2394462
1615570240,52.1324624,-2.3275910,0.1363027,0.0679691,-2.4082704,52.1324540,-2.3275890,0.1365443,0.0690683,-2.2393236
1615570241,52.1324625,-2.3275911,0.1340803,0.0672371,-2.1582947,52.1324540,-2.3275890,0.1365589,0.0690895,-2.2395008
1615570241,52.1324627,-2.3275913,0.1343286,0.0674811,-2.3369367,52.1324540,-2.3275890,0.1365746,0.0690592,-2.2390108
1615570241,52.1324627,-2.3275913,0.1328474,0.0669931,-2.1919184,52.1324541,-2.3275890,0.1366098,0.0690906,-2.2391865
1615570242,52.1324628,-2.3275913,0.1345748,0.0674811,-2.0547817,52.1324541,-2.3275890,0.1366026,0.0690577,-2.2388110
1615570242,52.1324630,-2.3275913,0.1335770,0.0660173,3.1227989,52.1324541,-2.3275890,0.1365939,0.0690528,-2.2388039
1615570243,52.1324630,-2.3275914,0.1328302,0.0650414,-2.6326632,52.1324541,-2.3275890,0.1366398,0.0690417,-2.2383647
1615570243,52.1324631,-2.3275914,0.1330957,0.0672371,-2.1703658,52.1324542,-2.3275891,0.1366473,0.0690196,-2.2380331
1615570243,52.1324632,-2.3275914,0.1303678,0.0647975,-2.5406733,52.1324542,-2.3275891,0.1366298,0.0690144,-2.2380795
1615570244,52.1324633,-2.3275914,0.1335749,0.0657733,-2.8111417,52.1324542,-2.3275891,0.1366099,0.0690351,-2.2384729
1615570244,52.1324634,-2.3275914,0.1338145,0.0650414,-1.6873610,52.1324542,-2.3275891,0.1366348,0.0690564,-2.2385862
1615570244,52.1324634,-2.3275914,0.1345770,0.0677251,-2.3927081,52.1324543,-2.3275891,0.1366499,0.0690440,-2.2383304
1615570245,52.1324635,-2.3275913,0.1338232,0.0660173,-1.9919409,52.1324543,-2.3275891,0.1366712,0.0690544,-2.2383268
1615570245,52.1324636,-2.3275912,0.1330784,0.0652854,-2.4736111,52.1324543,-2.3275891,0.1366948,0.0690700,-2.2383728
1615570246,52.1324637,-2.3275912,0.1318718,0.0679691,-2.4593029,52.1324543,-2.3275891,0.1366710,0.0690943,-2.2388387
1615570246,52.1324637,-2.3275912,0.1313666,0.0665052,-2.0195782,52.1324544,-2.3275891,0.1367012,0.0690994,-2.2387090
1615570246,52.1324637,-2.3275912,0.1308703,0.0660173,-2.0813401,52.1324544,-2.3275891,0.1366829,0.0690949,-2.2387695
1615570247,52.1324639,-2.3275913,0.1309143,0.0708973,-2.6203997,52.1324544,-2.3275891,0.1366427,0.0691180,-2.2393250
1615570247,52.1324639,-2.3275912,0.1293985,0.0665052,-2.3742430,52.1324544,-2.3275891,0.1366220,0.0690913,-2.2391162
1615570247,52.1324640,-2.3275912,0.1298948,0.0669931,-2.2680912,52.1324545,-2.3275891,0.1366349,0.0691003,-2.2391486
1615570248,52.1324641,-2.3275911,0.1298863,0.0660173,-2.3172717,52.1324545,-2.3275891,0.1366081,0.0690876,-2.2391591
1615570248,52.1324642,-2.3275911,0.1346022,0.0704092,2.5933774,52.1324545,-2.3275891,0.1366163,0.0691067,-2.2393503
1615570249,52.1324642,-2.3275911,0.1308536,0.0640657,-2.1946912,52.1324545,-2.3275891,0.1366119,0.0690970,-2.2392540
1615570249,52.1324643,-2.3275910,0.1325905,0.0657733,-2.3713048,52.1324546,-2.3275891,0.1365683,0.0691057,-2.2396474
1615570249,52.1324643,-2.3275910,0.1335579,0.0638218,-2.4825187,52.1324546,-2.3275892,0.1365839,0.0690996,-2.2394674
1615570250,52.1324644,-2.3275910,0.1340417,0.0628461,-2.4643645,52.1324546,-2.3275892,0.1365647,0.0691143,-2.2397814
1615570250,52.1324644,-2.3275910,0.1320754,0.0630900,-2.2792120,52.1324547,-2.3275892,0.1365641,0.0691390,-2.2401023
1615570250,52.1324645,-2.3275910,0.1335792,0.0662612,-2.0057530,52.1324547,-2.3275892,0.1365710,0.0691371,-2.2400324
1615570251,52.1324646,-2.3275910,0.1323662,0.0682131,-2.3833389,52.1324547,-2.3275892,0.1365546,0.0691504,-2.2403090
1615570251,52.1324646,-2.3275910,0.1348077,0.0660173,-1.9387301,52.1324547,-2.3275892,0.1365122,0.0691688,-2.2408187
1615570252,52.1324646,-2.3275910,0.1288961,0.0652854,-2.0830896,52.1324548,-2.3275892,0.1364861,0.0691336,-2.2405362
1615570252,52.1324647,-2.3275910,0.1350539,0.0660173,-1.9342046,52.1324548,-2.3275892,0.1364629,0.0691030,-2.2402916
1615570252,52.1324647,-2.3275911,0.1333353,0.0665052,-2.1627121,52.1324548,-2.3275892,0.1363859,0.0691173,-2.2409742
1615570253,52.1324647,-2.3275911,0.1330741,0.0647975,-2.5763791,52.1324548,-2.3275892,0.1363845,0.0691022,-2.2407882
1615570253,52.1324648,-2.3275911,0.1321048,0.0665052,-2.3899012,52.1324549,-2.3275892,0.1363930,0.0691134,-2.2408786
1615570253,52.1324648,-2.3275910,0.1318376,0.0640657,-2.2225955,52.1324549,-2.3275892,0.1364021,0.0691330,-2.2410715
1615570254,52.1324648,-2.3275910,0.1328607,0.0684571,-2.3984621,52.1324549,-2.3275892,0.1363736,0.0691359,-2.2412932
1615570254,52.1324648,-2.3275910,0.1328652,0.0689451,-1.9563936,52.1324549,-2.3275892,0.1363774,0.0691446,-2.2413802
1615570255,52.1324649,-2.3275910,0.1294135,0.0682131,-2.5705581,52.1324550,-2.3275892,0.1364168,0.0691458,-2.2411404
1615570255,52.1324649,-2.3275911,0.1314020,0.0704092,-2.3679249,52.1324550,-2.3275892,0.1364066,0.0691386,-2.2411134
1615570255,52.1324649,-2.3275910,0.1313710,0.0669931,-2.4954081,52.1324550,-2.3275892,0.1364372,0.0691420,-2.2409601
1615570256,52.1324650,-2.3275909,0.1316170,0.0669931,-1.7332793,52.1324550,-2.3275892,0.1364537,0.0691366,-2.2407830
1615570256,52.1324650,-2.3275910,0.1333597,0.0691891,-2.4215493,52.1324551,-2.3275892,0.1364724,0.0691737,-2.2411399
1615570256,52.1324651,-2.3275910,0.1328835,0.0708973,-2.6004331,52.1324551,-2.3275892,0.1364886,0.0691693,-2.2409790
1615570257,52.1324651,-2.3275910,0.1353247,0.0687011,-1.8641306,52.1324551,-2.3275892,0.1364831,0.0692046,-2.2414665
1615570257,52.1324652,-2.3275909,0.1316368,0.0691891,-2.3866622,52.1324551,-2.3275892,0.1364631,0.0692028,-2.2415731
1615570258,52.1324652,-2.3275909,0.1335663,0.0647975,-2.4202509,52.1324552,-2.3275893,0.1365116,0.0691562,-2.2406616
1615570258,52.1324653,-2.3275909,0.1308767,0.0667492,-2.3703718,52.1324552,-2.3275893,0.1365295,0.0691096,-2.2399471
1615570258,52.1324653,-2.3275909,0.1316041,0.0655293,-2.8568416,52.1324552,-2.3275893,0.1365439,0.0691132,-2.2399013
1615570259,52.1324653,-2.3275908,0.1309075,0.0701652,-2.4167390,52.1324553,-2.3275893,0.1365715,0.0691257,-2.2398820
1615570259,52.1324653,-2.3275909,0.1318397,0.0643096,-2.3646824,52.1324553,-2.3275893,0.1365539,0.0691237,-2.2399702
1615570259,52.1324654,-2.3275910,0.1313539,0.0650414,-2.2687340,52.1324553,-2.3275893,0.1365848,0.0691334,-2.2398946
1615570260,52.1324655,-2.3275910,0.1353362,0.0699211,-2.5221190,52.1324553,-2.3275893,0.1365670,0.0691314,-2.2399836
1615570260,52.1324655,-2.3275910,0.1328562,0.0679691,-2.7100596,52.1324554,-2.3275893,0.1365562,0.0690758,-2.2393403
1615570261,52.1324655,-2.3275910,0.1308832,0.0674811,-1.8078831,52.1324554,-2.3275893,0.1365940,0.0690652,-2.2389598
1615570261,52.1324655,-2.3275911,0.1326079,0.0677251,-3.1128917,52.1324554,-2.3275893,0.1366003,0.0691040,-2.2394171
1615570261,52.1324654,-2.3275912,0.1308767,0.0667492,-2.7947206,52.1324554,-2.3275893,0.1366348,0.0690937,-2.2390618
1615570262,52.1324655,-2.3275912,0.1291278,0.0635778,-1.8176768,52.1324555,-2.3275893,0.1366319,0.0691050,-2.2392251
1615570262,52.1324655,-2.3275912,0.1331113,0.0689451,-2.3221021,52.1324555,-2.3275893,0.1366150,0.0690795,-2.2390084
1615570262,52.1324654,-2.3275912,0.1299143,0.0691891,-3.0630550,52.1324555,-2.3275893,0.1366357,0.0690989,-2.2391229
1615570263,52.1324654,-2.3275913,0.1291718,0.0687011,-2.0641611,52.1324555,-2.3275893,0.1366309,0.0690756,-2.2388549
1615570263,52.1324654,-2.3275914,0.1333056,0.0630900,-2.3660834,52.1324556,-2.3275893,0.1366326,0.0690858,-2.2389746
1615570264,52.1324654,-2.3275914,0.1338188,0.0655293,-2.4290774,52.1324556,-2.3275893,0.1366561,0.0691075,-2.2391009
1615570264,52.1324654,-2.3275915,0.1313645,0.0662612,-2.4000692,52.1324556,-2.3275893,0.1366361,0.0691241,-2.2394428
1615570264,52.1324654,-2.3275915,0.1343154,0.0660173,-2.1441722,52.1324556,-2.3275893,0.1366388,0.0691054,-2.2391853
1615570265,52.1324653,-2.3275915,0.1350539,0.0660173,-1.7251676,52.1324556,-2.3275893,0.1365937,0.0691174,-2.2396305
1615570265,52.1324653,-2.3275916,0.1328518,0.0674811,-1.6225353,52.1324557,-2.3275893,0.1365899,0.0691208,-2.2396998
1615570265,52.1324653,-2.3275917,0.1294245,0.0694331,-2.7243690,52.1324557,-2.3275894,0.1366075,0.0691063,-2.2393999
1615570266,52.1324653,-2.3275917,0.1308454,0.0630900,-2.0125787,52.1324557,-2.3275894,0.1365976,0.0690669,-2.2389581
1615570266,52.1324653,-2.3275917,0.1328431,0.0665052,-2.0536323,52.1324557,-2.3275894,0.1365776,0.0690402,-2.2387440
1615570267,52.1324653,-2.3275917,0.1335579,0.0638218,-2.3147879,52.1324558,-2.3275894,0.1366345,0.0690538,-2.2385509
1615570267,52.1324653,-2.3275918,0.1308746,0.0665052,-2.3070066,52.1324558,-2.3275894,0.1366269,0.0690603,-2.2386832
1615570267,52.1324653,-2.3275918,0.1313581,0.0655293,-2.0659959,52.1324558,-2.3275894,0.1366346,0.0691138,-2.2393198
1615570268,52.1324653,-2.3275919,0.1328629,0.0687011,-2.3965812,52.1324558,-2.3275894,0.1366408,0.0691177,-2.2393301
1615570268,52.1324652,-2.3275919,0.1343198,0.0665052,-2.2367747,52.1324559,-2.3275894,0.1366409,0.0691159,-2.2393067
1615570268,52.1324652,-2.3275918,0.1328260,0.0645536,-1.9227111,52.1324559,-2.3275894,0.1366789,0.0690966,-2.2388134
1615570269,52.1324651,-2.3275915,0.1367619,0.0643096,-2.4453321,52.1324559,-2.3275894,0.1367246,0.0691028,-2.2385991
1615570269,52.1324650,-2.3275911,0.1375272,0.0672371,-2.2947049,52.1324559,-2.3275894,0.1367452,0.0690822,-2.2382014
1615570270,52.1324649,-2.3275907,0.1345748,0.0674811,-1.7375684,52.1324559,-2.3275894,0.1367446,0.0691015,-2.2384529
1615570270,52.1324648,-2.3275903,0.1350517,0.0657733,-2.1722901,52.1324560,-2.3275894,0.1367433,0.0690730,-2.2380960
1615570270,52.1324647,-2.3275899,0.1308640,0.0652854,-2.6115921,52.1324560,-2.3275894,0.1367751,0.0691069,-2.2383261
1615570271,52.1324646,-2.3275896,0.1328238,0.0643096,-2.1745753,52.1324560,-2.3275894,0.1367585,0.0690658,-2.2379055
1615570271,52.1324646,-2.3275892,0.1321268,0.0689451,-2.2592955,52.1324560,-2.3275894,0.1367726,0.0690802,-2.2379992
1615570271,52.1324646,-2.3275889,0.1345704,0.0669931,-1.7537675,52.1324560,-2.3275894,0.1367391,0.0691245,-2.2387824
1615570272,52.1324646,-2.3275886,0.1333758,0.0708973,-2.1024752,52.1324561,-2.3275894,0.1367478,0.0691561,-2.2391303
1615570272,52.1324647,-2.3275883,0.1343421,0.0689451,-2.5262628,52.1324561,-2.3275894,0.1367643,0.0691603,-2.2390785
1615570273,52.1324645,-2.3275880,0.1330595,0.0630900,-2.0946226,52.1324561,-2.3275894,0.1367964,0.0691637,-2.2389145
1615570273,52.1324646,-2.3275877,0.1306821,0.0723616,-2.7686234,52.1324561,-2.3275894,0.1367773,0.0691967,-2.2394605
1615570273,52.1324646,-2.3275874,0.1362760,0.0650414,-2.3519251,52.1324561,-2.3275894,0.1367922,0.0691883,-2.2392569
1615570274,52.1324646,-2.3275870,0.1281624,0.0657733,-2.1650743,52.1324562,-2.3275894,0.1367798,0.0691665,-2.2390573
1615570274,52.1324646,-2.3275867,0.1264493,0.0667492,-1.9266732,52.1324562,-2.3275894,0.1367654,0.0691726,-2.2392282
1615570274,52.1324647,-2.3275864,0.1321005,0.0660173,-2.7401512,52.1324562,-2.3275894,0.1367756,0.0691980,-2.2394876
1615570275,52.1324647,-2.3275861,0.1330784,0.0652854,-2.1707222,52.1324562,-2.3275894,0.1367672,0.0691649,-2.2391181
1615570275,52.1324647,-2.3275859,0.1313710,0.0669931,-2.4151559,52.1324562,-2.3275894,0.1367729,0.0691837,-2.2393219
1615570276,52.1324648,-2.3275856,0.1303804,0.0662612,-2.3235333,52.1324563,-2.3275894,0.1367844,0.0692043,-2.2395115
1615570276,52.1324648,-2.3275854,0.1303375,0.0611388,-2.5269580,52.1324563,-2.3275894,0.1367644,0.0691745,-2.2392597
1615570276,52.1324648,-2.3275851,0.1313753,0.0674811,-2.5896647,52.1324563,-2.3275893,0.1366674,0.0691431,-2.2394817
1615570277,52.1324649,-2.3275850,0.1345594,0.0657733,-2.0028915,52.1324563,-2.3275893,0.1366804,0.0691656,-2.2396865
1615570277,52.1324650,-2.3275848,0.1318566,0.0662612,-2.5515172,52.1324563,-2.3275893,0.1366361,0.0691136,-2.2393055
1615570277,52.1324650,-2.3275845,0.1311491,0.0696771,-2.0609202,52.1324564,-2.3275893,0.1366500,0.0690924,-2.2389433
1615570278,52.1324651,-2.3275843,0.1335814,0.0665052,-2.1789522,52.1324564,-2.3275893,0.1366669,0.0690857,-2.2387488
1615570278,52.1324651,-2.3275843,0.1320899,0.0647975,-2.7209640,52.1324564,-2.3275893,0.1367075,0.0690845,-2.2384725
1615570279,52.1324651,-2.3275841,0.1289237,0.0684571,-1.8639487,52.1324564,-2.3275893,0.1366971,0.0690657,-2.2382979
1615570279,52.1324652,-2.3275840,0.1343264,0.0672371,-1.8611042,52.1324564,-2.3275893,0.1367084,0.0690421,-2.2379224
1615570279,52.1324652,-2.3275839,0.1362870,0.0662612,-2.2376661,52.1324565,-2.3275893,0.1367197,0.0690994,-2.2385833
1615570280,52.1324653,-2.3275837,0.1342674,0.0604072,-2.3174658,52.1324565,-2.3275892,0.1367210,0.0691119,-2.2387362
1615570280,52.1324654,-2.3275835,0.1347969,0.0647975,-2.2370455,52.1324565,-2.3275892,0.1367350,0.0691379,-2.2389793
1615570280,52.1324653,-2.3275835,0.1363166,0.0694331,-2.7088974,52.1324565,-2.3275892,0.1367733,0.0691401,-2.2387600
1615570281,52.1324654,-2.3275833,0.1335836,0.0667492,-1.8420702,52.1324565,-2.3275892,0.1367755,0.0691416,-2.2387657
1615570281,52.1324654,-2.3275833,0.1316391,0.0694331,-1.9362042,52.1324566,-2.3275892,0.1368003,0.0691073,-2.2381673
1615570282,52.1324655,-2.3275832,0.1308919,0.0684571,-2.4376340,52.1324566,-2.3275892,0.1368323,0.0691119,-2.2380195
1615570282,52.1324655,-2.3275830,0.1316257,0.0679691,-2.1244843,52.1324566,-2.3275892,0.1368510,0.0690970,-2.2377083
1615570282,52.1324656,-2.3275829,0.1348461,0.0701652,-2.1470313,52.1324566,-2.3275892,0.1368353,0.0690850,-2.2376559
1615570283,52.1324657,-2.3275827,0.1355462,0.0660173,-2.2131679,52.1324566,-2.3275891,0.1368051,0.0690931,-2.2379537
1615570283,52.1324658,-2.3275825,0.1345704,0.0669931,-2.2235661,52.1324567,-2.3275891,0.1367583,0.0691034,-2.2383876
1615570283,52.1324658,-2.3275824,0.1316302,0.0684571,-2.4705930,52.1324567,-2.3275891,0.1367157,0.0691106,-2.2387540
1615570284,52.1324660,-2.3275822,0.1360520,0.0674811,-2.4176018,52.1324567,-2.3275891,0.1366967,0.0691751,-2.2397029
1615570284,52.1324660,-2.3275821,0.1335770,0.0660173,-2.6881850,52.1324567,-2.3275891,0.1366974,0.0691488,-2.2393618
1615570285,52.1324661,-2.3275819,0.1306076,0.0640657,-2.1685584,52.1324567,-2.3275891,0.1366444,0.0691069,-2.2391646
1615570285,52.1324662,-2.3275818,0.1355484,0.0662612,-2.4502797,52.1324568,-2.3275890,0.1366431,0.0690756,-2.2387724
1615570285,52.1324663,-2.3275817,0.1325862,0.0652854,-2.1169538,52.1324568,-2.3275890,0.1366471,0.0691052,-2.2391248
1615570286,52.1324664,-2.3275815,0.1341028,0.0696771,-2.0842819,52.1324568,-2.3275890,0.1366489,0.0691168,-2.2392628
1615570286,52.1324665,-2.3275815,0.1379779,0.0626022,-2.4989414,52.1324568,-2.3275890,0.1366537,0.0691568,-2.2397447
1615570286,52.1324665,-2.3275813,0.1323574,0.0672371,-2.1934865,52.1324568,-2.3275890,0.1366627,0.0691167,-2.2391732
1615570287,52.1324666,-2.3275811,0.1382480,0.0652854,-1.8080033,52.1324569,-2.3275890,0.1366390,0.0691167,-2.2393250
1615570287,52.1324668,-2.3275810,0.1308810,0.0672371,-2.6483846,52.1324569,-2.3275889,0.1365944,0.0691076,-2.2394958
1615570288,52.1324669,-2.3275809,0.1353156,0.0677251,-1.9924023,52.1324569,-2.3275889,0.1366023,0.0691579,-2.2400904
1615570288,52.1324669,-2.3275808,0.1320962,0.0655293,-2.4653835,52.1324569,-2.3275889,0.1366411,0.0691464,-2.2396922
1615570288,52.1324671,-2.3275806,0.1298596,0.0628461,-2.3388114,52.1324569,-2.3275889,0.1365637,0.0691557,-2.2403100
1615570289,52.1324671,-2.3275805,0.1331091,0.0687011,-2.7562652,52.1324570,-2.3275889,0.1365591,0.0691314,-2.2400289
1615570289,52.1324673,-2.3275804,0.1321070,0.0667492,-2.1284261,52.1324570,-2.3275889,0.1365684,0.0691615,-2.2403550
1615570289,52.1324673,-2.3275802,0.1333035,0.0628461,-2.2907310,52.1324570,-2.3275888,0.1365697,0.0691686,-2.2404366
1615570290,52.1324673,-2.3275801,0.1304290,0.0716294,-2.4574327,52.1324570,-2.3275888,0.1365849,0.0691812,-2.2405002
1615570290,52.1324674,-2.3275799,0.1316192,0.0672371,-2.1302624,52.1324571,-2.3275888,0.1366202,0.0691936,-2.2404320
1615570291,52.1324675,-2.3275798,0.1301582,0.0689451,-2.2681944,52.1324571,-2.3275888,0.1366080,0.0692074,-2.2406862
1615570291,52.1324675,-2.3275796,0.1321201,0.0682131,-2.5681078,52.1324571,-2.3275888,0.1365946,0.0692476,-2.2412879
1615570291,52.1324675,-2.3275794,0.1345704,0.0669931,-2.3620965,52.1324571,-2.3275887,0.1366079,0.0692535,-2.2412784
1615570292,52.1324676,-2.3275793,0.1345572,0.0655293,-2.2195425,52.1324571,-2.3275887,0.1365928,0.0692648,-2.2415204
1615570292,52.1324677,-2.3275791,0.1306055,0.0638218,-2.3370123,52.1324572,-2.3275887,0.1366129,0.0692501,-2.2412033
1615570292,52.1324678,-2.3275789,0.1350302,0.0633339,-2.4292965,52.1324572,-2.3275887,0.1365668,0.0692704,-2.2417598
1615570293,52.1324679,-2.3275788,0.1301538,0.0684571,-2.6368399,52.1324572,-2.3275887,0.1366139,0.0692650,-2.2413862
1615570293,52.1324680,-2.3275787,0.1365444,0.0674811,-2.0285053,52.1324572,-2.3275886,0.1365526,0.0692402,-2.2414639
1615570294,52.1324681,-2.3275786,0.1345637,0.0662612,-2.3198557,52.1324573,-2.3275886,0.1365803,0.0692961,-2.2420015
1615570294,52.1324682,-2.3275785,0.1369704,0.0599194,-2.3276792,52.1324573,-2.3275886,0.1365559,0.0692880,-2.2420552
1615570294,52.1324683,-2.3275784,0.1318481,0.0652854,-2.0619502,52.1324573,-2.3275886,0.1366334,0.0692639,-2.2412469
1615570295,52.1324683,-2.3275783,0.1338498,0.0689451,-2.1367955,52.1324573,-2.3275886,0.1366642,0.0692489,-2.2408569
1615570295,52.1324684,-2.3275782,0.1320733,0.0628461,-2.2343736,52.1324573,-2.3275885,0.1366440,0.0693019,-2.2416649
1615570295,52.1324685,-2.3275782,0.1318439,0.0647975,-2.3678992,52.1324574,-2.3275885,0.1366405,0.0692922,-2.2415638
1615570296,52.1324686,-2.3275782,0.1347969,0.0647975,-2.1207471,52.1324574,-2.3275885,0.1366709,0.0692276,-2.2405410
1615570296,52.1324687,-2.3275781,0.1308767,0.0667492,-2.1015084,52.1324574,-2.3275885,0.1366219,0.0692264,-2.2408412
1615570297,52.1324689,-2.3275780,0.1328431,0.0665052,-2.3720725,52.1324574,-2.3275885,0.1366180,0.0692477,-2.2411385
1615570297,52.1324689,-2.3275779,0.1338253,0.0662612,-1.9711852,52.1324575,-2.3275884,0.1366643,0.0692276,-2.2405844
1615570297,52.1324690,-2.3275779,0.1335496,0.0628461,-2.1766129,52.1324575,-2.3275884,0.1366277,0.0692687,-2.2413459
1615570298,52.1324691,-2.3275779,0.1333375,0.0667492,-2.2735252,52.1324575,-2.3275884,0.1366540,0.0692738,-2.2412415
1615570298,52.1324692,-2.3275779,0.1320962,0.0655293,-2.6351345,52.1324575,-2.3275884,0.1366695,0.0692431,-2.2407491
1615570298,52.1324692,-2.3275779,0.1352870,0.0645536,-2.1129072,52.1324576,-2.3275884,0.1367159,0.0692370,-2.2403727
1615570299,52.1324692,-2.3275778,0.1340500,0.0638218,-2.3888884,52.1324576,-2.3275883,0.1367146,0.0692468,-2.2405057
1615570299,52.1324693,-2.3275779,0.1323640,0.0679691,-2.3834631,52.1324576,-2.3275883,0.1366844,0.0692591,-2.2408571
1615570300,52.1324693,-2.3275779,0.1313952,0.0696771,-2.1644325,52.1324576,-2.3275883,0.1366876,0.0692875,-2.2411997
1615570300,52.1324694,-2.3275779,0.1301116,0.0635778,-2.6462705,52.1324576,-2.3275883,0.1366601,0.0693179,-2.2417660
1615570300,52.1324694,-2.3275779,0.1313775,0.0677251,-1.9777179,52.1324577,-2.3275882,0.1366766,0.0693500,-2.2420695
1615570301,52.1324695,-2.3275778,0.1325884,0.0655293,-2.5498376,52.1324577,-2.3275882,0.1366407,0.0693242,-2.2419705
1615570301,52.1324695,-2.3275779,0.1357858,0.0652854,-2.4378467,52.1324577,-2.3275882,0.1365991,0.0693538,-2.2426167
1615570301,52.1324696,-2.3275779,0.1347947,0.0645536,-2.4806340,52.1324577,-2.3275882,0.1365713,0.0693556,-2.2428188
1615570302,52.1324696,-2.3275779,0.1343606,0.0708973,-2.7848685,52.1324578,-2.3275882,0.1365319,0.0693525,-2.2430336
1615570302,52.1324697,-2.3275778,0.1343399,0.0687011,-2.3828306,52.1324578,-2.3275881,0.1365058,0.0693168,-2.2427435
1615570303,52.1324698,-2.3275779,0.1306180,0.0652854,-2.1109781,52.1324578,-2.3275881,0.1364931,0.0693760,-2.2435837
1615570303,52.1324697,-2.3275778,0.1301716,0.0704092,-2.4373930,52.1324578,-2.3275881,0.1364881,0.0693797,-2.2436626
